---
header:
  frame_id: local
pose:
  position:
    x: 0.0288413925
    y: 0.01169471275
    z: -0.01
  orientation:
    x: 0
    y: 0
    z: 1
    w: 0
---
header:
  frame_id: local
pose:
  position:
    x: 0.0288413925
    y: 0.01169471275
    z: 0.0
  orientation:
    x: 0
    y: 0
    z: 1
    w: 0
---
header:
  frame_id: local
pose:
  position:
    x: 0.042870013171365205
    y: 0.01169471275
    z: 0.0
  orientation:
    x: 0
    y: 0
    z: 1
    w: 0
---
header:
  frame_id: local
pose:
  position:
    x: 0.05689863384273042
    y: 0.01169471275
    z: 0.0
  orientation:
    x: 0
    y: 0
    z: 1
    w: 0
---
header:
  frame_id: local
pose:
  position:
    x: 0.07173567861179339
    y: 0.012665550237283206
    z: 0.0
  orientation:
    x: 0
    y: 0
    z: 1
    w: 0
---
header:
  frame_id: local
pose:
  position:
    x: 0.08322048287199012
    y: 0.01868961245082696
    z: 0.0
  orientation:
    x: 0
    y: 0
    z: 1
    w: 0
---
header:
  frame_id: local
pose:
  position:
    x: 0.08866611688762616
    y: 0.03108875832357643
    z: 0.0
  orientation:
    x: 0
    y: 0
    z: 1
    w: 0
---
header:
  frame_id: local
pose:
  position:
    x: 0.08633203732387187
    y: 0.044982102640739124
    z: 0.0
  orientation:
    x: 0
    y: 0
    z: 1
    w: 0
---
header:
  frame_id: local
pose:
  position:
    x: 0.07797587858610382
    y: 0.05603897429408606
    z: 0.0
  orientation:
    x: 0
    y: 0
    z: 1
    w: 0
---
header:
  frame_id: local
pose:
  position:
    x: 0.06578994831237304
    y: 0.06171672083712903
    z: 0.0
  orientation:
    x: 0
    y: 0
    z: 1
    w: 0
---
header:
  frame_id: local
pose:
  position:
    x: 0.05135575429316438
    y: 0.0629648125
    z: 0.0
  orientation:
    x: 0
    y: 0
    z: 1
    w: 0
---
header:
  frame_id: local
pose:
  position:
    x: 0.03871761700637697
    y: 0.0646494025446498
    z: 0.0
  orientation:
    x: 0
    y: 0
    z: 1
    w: 0
---
header:
  frame_id: local
pose:
  position:
    x: 0.03605848607902924
    y: 0.07842369819460152
    z: 0.0
  orientation:
    x: 0
    y: 0
    z: 1
    w: 0
---
header:
  frame_id: local
pose:
  position:
    x: 0.03175323393896217
    y: 0.090203695
    z: 0.0
  orientation:
    x: 0
    y: 0
    z: 1
    w: 0
---
header:
  frame_id: local
pose:
  position:
    x: 0.017724613267596976
    y: 0.090203695
    z: 0.0
  orientation:
    x: 0
    y: 0
    z: 1
    w: 0
---
header:
  frame_id: local
pose:
  position:
    x: 0.01542234641457947
    y: 0.08054225555788634
    z: 0.0
  orientation:
    x: 0
    y: 0
    z: 1
    w: 0
---
header:
  frame_id: local
pose:
  position:
    x: 0.018106155631663578
    y: 0.06677274699630907
    z: 0.0
  orientation:
    x: 0
    y: 0
    z: 1
    w: 0
---
header:
  frame_id: local
pose:
  position:
    x: 0.02078996484874768
    y: 0.053003238434731814
    z: 0.0
  orientation:
    x: 0
    y: 0
    z: 1
    w: 0
---
header:
  frame_id: local
pose:
  position:
    x: 0.023473774065831784
    y: 0.039233729873154564
    z: 0.0
  orientation:
    x: 0
    y: 0
    z: 1
    w: 0
---
header:
  frame_id: local
pose:
  position:
    x: 0.02615758328291589
    y: 0.02546422131157728
    z: 0.0
  orientation:
    x: 0
    y: 0
    z: 1
    w: 0
---
header:
  frame_id: local
pose:
  position:
    x: 0.0288413925
    y: 0.011694712750000003
    z: 0.0
  orientation:
    x: 0
    y: 0
    z: 1
    w: 0
---
header:
  frame_id: local
pose:
  position:
    x: 0.0288413925
    y: 0.011694712750000003
    z: -0.01
  orientation:
    x: 0
    y: 0
    z: 1
    w: 0
---
header:
  frame_id: local
pose:
  position:
    x: 0.0462995175
    y: 0.026365850000000003
    z: -0.01
  orientation:
    x: 0
    y: 0
    z: 1
    w: 0
---
header:
  frame_id: local
pose:
  position:
    x: 0.0462995175
    y: 0.026365850000000003
    z: 0.0
  orientation:
    x: 0
    y: 0
    z: 1
    w: 0
---
header:
  frame_id: local
pose:
  position:
    x: 0.04545907389575817
    y: 0.03063981211947943
    z: 0.0
  orientation:
    x: 0
    y: 0
    z: 1
    w: 0
---
header:
  frame_id: local
pose:
  position:
    x: 0.04461863029151635
    y: 0.034913774238958854
    z: 0.0
  orientation:
    x: 0
    y: 0
    z: 1
    w: 0
---
header:
  frame_id: local
pose:
  position:
    x: 0.043778186687274526
    y: 0.03918773635843828
    z: 0.0
  orientation:
    x: 0
    y: 0
    z: 1
    w: 0
---
header:
  frame_id: local
pose:
  position:
    x: 0.04293774308303269
    y: 0.0434616984779177
    z: 0.0
  orientation:
    x: 0
    y: 0
    z: 1
    w: 0
---
header:
  frame_id: local
pose:
  position:
    x: 0.042097299478790866
    y: 0.04773566059739713
    z: 0.0
  orientation:
    x: 0
    y: 0
    z: 1
    w: 0
---
header:
  frame_id: local
pose:
  position:
    x: 0.045774681111083695
    y: 0.048293675
    z: 0.0
  orientation:
    x: 0
    y: 0
    z: 1
    w: 0
---
header:
  frame_id: local
pose:
  position:
    x: 0.05013049305039605
    y: 0.048293675
    z: 0.0
  orientation:
    x: 0
    y: 0
    z: 1
    w: 0
---
header:
  frame_id: local
pose:
  position:
    x: 0.05473349253768283
    y: 0.04825225346850195
    z: 0.0
  orientation:
    x: 0
    y: 0
    z: 1
    w: 0
---
header:
  frame_id: local
pose:
  position:
    x: 0.05931338583742742
    y: 0.04750796633095318
    z: 0.0
  orientation:
    x: 0
    y: 0
    z: 1
    w: 0
---
header:
  frame_id: local
pose:
  position:
    x: 0.06296063019818732
    y: 0.04583103094723683
    z: 0.0
  orientation:
    x: 0
    y: 0
    z: 1
    w: 0
---
header:
  frame_id: local
pose:
  position:
    x: 0.06576021902046622
    y: 0.04308668747253468
    z: 0.0
  orientation:
    x: 0
    y: 0
    z: 1
    w: 0
---
header:
  frame_id: local
pose:
  position:
    x: 0.06744434350819487
    y: 0.03927950118984562
    z: 0.0
  orientation:
    x: 0
    y: 0
    z: 1
    w: 0
---
header:
  frame_id: local
pose:
  position:
    x: 0.06789624878694002
    y: 0.034515685888428564
    z: 0.0
  orientation:
    x: 0
    y: 0
    z: 1
    w: 0
---
header:
  frame_id: local
pose:
  position:
    x: 0.06668238501122158
    y: 0.030333801206558833
    z: 0.0
  orientation:
    x: 0
    y: 0
    z: 1
    w: 0
---
header:
  frame_id: local
pose:
  position:
    x: 0.06378326051277153
    y: 0.02768905690540692
    z: 0.0
  orientation:
    x: 0
    y: 0
    z: 1
    w: 0
---
header:
  frame_id: local
pose:
  position:
    x: 0.05968946870699657
    y: 0.026494364725245686
    z: 0.0
  orientation:
    x: 0
    y: 0
    z: 1
    w: 0
---
header:
  frame_id: local
pose:
  position:
    x: 0.055011141378624714
    y: 0.026365850000000003
    z: 0.0
  orientation:
    x: 0
    y: 0
    z: 1
    w: 0
---
header:
  frame_id: local
pose:
  position:
    x: 0.050655329439312356
    y: 0.026365850000000003
    z: 0.0
  orientation:
    x: 0
    y: 0
    z: 1
    w: 0
---
header:
  frame_id: local
pose:
  position:
    x: 0.0462995175
    y: 0.026365850000000003
    z: 0.0
  orientation:
    x: 0
    y: 0
    z: 1
    w: 0
---
header:
  frame_id: local
pose:
  position:
    x: 0.0462995175
    y: 0.026365850000000003
    z: -0.01
  orientation:
    x: 0
    y: 0
    z: 1
    w: 0
---
header:
  frame_id: local
pose:
  position:
    x: 0.10777105000000001
    y: 0.01169471275
    z: -0.01
  orientation:
    x: 0
    y: 0
    z: 1
    w: 0
---
header:
  frame_id: local
pose:
  position:
    x: 0.10777105000000001
    y: 0.01169471275
    z: 0.0
  orientation:
    x: 0
    y: 0
    z: 1
    w: 0
---
header:
  frame_id: local
pose:
  position:
    x: 0.1183217305123276
    y: 0.01169471275
    z: 0.0
  orientation:
    x: 0
    y: 0
    z: 1
    w: 0
---
header:
  frame_id: local
pose:
  position:
    x: 0.12785235695939606
    y: 0.012535143699317845
    z: 0.0
  orientation:
    x: 0
    y: 0
    z: 1
    w: 0
---
header:
  frame_id: local
pose:
  position:
    x: 0.1258339110314766
    y: 0.0228909505394088
    z: 0.0
  orientation:
    x: 0
    y: 0
    z: 1
    w: 0
---
header:
  frame_id: local
pose:
  position:
    x: 0.12381546510355713
    y: 0.033246757379499746
    z: 0.0
  orientation:
    x: 0
    y: 0
    z: 1
    w: 0
---
header:
  frame_id: local
pose:
  position:
    x: 0.12179701917563765
    y: 0.0436025642195907
    z: 0.0
  orientation:
    x: 0
    y: 0
    z: 1
    w: 0
---
header:
  frame_id: local
pose:
  position:
    x: 0.11977857324771816
    y: 0.05395837105968166
    z: 0.0
  orientation:
    x: 0
    y: 0
    z: 1
    w: 0
---
header:
  frame_id: local
pose:
  position:
    x: 0.1177601273197987
    y: 0.06431417789977262
    z: 0.0
  orientation:
    x: 0
    y: 0
    z: 1
    w: 0
---
header:
  frame_id: local
pose:
  position:
    x: 0.11574168139187921
    y: 0.07466998473986355
    z: 0.0
  orientation:
    x: 0
    y: 0
    z: 1
    w: 0
---
header:
  frame_id: local
pose:
  position:
    x: 0.11372323546395974
    y: 0.0850257915799545
    z: 0.0
  orientation:
    x: 0
    y: 0
    z: 1
    w: 0
---
header:
  frame_id: local
pose:
  position:
    x: 0.10743867224383621
    y: 0.090203695
    z: 0.0
  orientation:
    x: 0
    y: 0
    z: 1
    w: 0
---
header:
  frame_id: local
pose:
  position:
    x: 0.09688799173150862
    y: 0.090203695
    z: 0.0
  orientation:
    x: 0
    y: 0
    z: 1
    w: 0
---
header:
  frame_id: local
pose:
  position:
    x: 0.09364192850456368
    y: 0.08418536063063668
    z: 0.0
  orientation:
    x: 0
    y: 0
    z: 1
    w: 0
---
header:
  frame_id: local
pose:
  position:
    x: 0.09566037443248317
    y: 0.07382955379054573
    z: 0.0
  orientation:
    x: 0
    y: 0
    z: 1
    w: 0
---
header:
  frame_id: local
pose:
  position:
    x: 0.09767882036040262
    y: 0.06347374695045477
    z: 0.0
  orientation:
    x: 0
    y: 0
    z: 1
    w: 0
---
header:
  frame_id: local
pose:
  position:
    x: 0.09969726628832211
    y: 0.053117940110363804
    z: 0.0
  orientation:
    x: 0
    y: 0
    z: 1
    w: 0
---
header:
  frame_id: local
pose:
  position:
    x: 0.10171571221624157
    y: 0.04276213327027287
    z: 0.0
  orientation:
    x: 0
    y: 0
    z: 1
    w: 0
---
header:
  frame_id: local
pose:
  position:
    x: 0.10373415814416105
    y: 0.03240632643018192
    z: 0.0
  orientation:
    x: 0
    y: 0
    z: 1
    w: 0
---
header:
  frame_id: local
pose:
  position:
    x: 0.10575260407208052
    y: 0.022050519590090963
    z: 0.0
  orientation:
    x: 0
    y: 0
    z: 1
    w: 0
---
header:
  frame_id: local
pose:
  position:
    x: 0.10777105000000001
    y: 0.011694712750000003
    z: 0.0
  orientation:
    x: 0
    y: 0
    z: 1
    w: 0
---
header:
  frame_id: local
pose:
  position:
    x: 0.10777105000000001
    y: 0.011694712750000003
    z: -0.01
  orientation:
    x: 0
    y: 0
    z: 1
    w: 0
---
header:
  frame_id: local
pose:
  position:
    x: 0.195534945
    y: 0.08652276499999999
    z: -0.01
  orientation:
    x: 0
    y: 0
    z: 1
    w: 0
---
header:
  frame_id: local
pose:
  position:
    x: 0.195534945
    y: 0.08652276499999999
    z: 0.0
  orientation:
    x: 0
    y: 0
    z: 1
    w: 0
---
header:
  frame_id: local
pose:
  position:
    x: 0.17771818104251466
    y: 0.0910754165839387
    z: 0.0
  orientation:
    x: 0
    y: 0
    z: 1
    w: 0
---
header:
  frame_id: local
pose:
  position:
    x: 0.15896037696502555
    y: 0.09073872903853274
    z: 0.0
  orientation:
    x: 0
    y: 0
    z: 1
    w: 0
---
header:
  frame_id: local
pose:
  position:
    x: 0.14355336894859672
    y: 0.08297816182324531
    z: 0.0
  orientation:
    x: 0
    y: 0
    z: 1
    w: 0
---
header:
  frame_id: local
pose:
  position:
    x: 0.13493082662342823
    y: 0.06773737381670904
    z: 0.0
  orientation:
    x: 0
    y: 0
    z: 1
    w: 0
---
header:
  frame_id: local
pose:
  position:
    x: 0.13527475402100594
    y: 0.0490438464138701
    z: 0.0
  orientation:
    x: 0
    y: 0
    z: 1
    w: 0
---
header:
  frame_id: local
pose:
  position:
    x: 0.14206585002068836
    y: 0.032406942622364036
    z: 0.0
  orientation:
    x: 0
    y: 0
    z: 1
    w: 0
---
header:
  frame_id: local
pose:
  position:
    x: 0.15457177798737778
    y: 0.01921556786973803
    z: 0.0
  orientation:
    x: 0
    y: 0
    z: 1
    w: 0
---
header:
  frame_id: local
pose:
  position:
    x: 0.17097718261584338
    y: 0.011747692843507873
    z: 0.0
  orientation:
    x: 0
    y: 0
    z: 1
    w: 0
---
header:
  frame_id: local
pose:
  position:
    x: 0.18915942703124852
    y: 0.010591299282233969
    z: 0.0
  orientation:
    x: 0
    y: 0
    z: 1
    w: 0
---
header:
  frame_id: local
pose:
  position:
    x: 0.206666345046646
    y: 0.015396559098655898
    z: 0.0
  orientation:
    x: 0
    y: 0
    z: 1
    w: 0
---
header:
  frame_id: local
pose:
  position:
    x: 0.20499384903120682
    y: 0.032355684644813365
    z: 0.0
  orientation:
    x: 0
    y: 0
    z: 1
    w: 0
---
header:
  frame_id: local
pose:
  position:
    x: 0.18854441070372543
    y: 0.025242405928509803
    z: 0.0
  orientation:
    x: 0
    y: 0
    z: 1
    w: 0
---
header:
  frame_id: local
pose:
  position:
    x: 0.17090415648515955
    y: 0.028231864200311464
    z: 0.0
  orientation:
    x: 0
    y: 0
    z: 1
    w: 0
---
header:
  frame_id: local
pose:
  position:
    x: 0.1588526923953411
    y: 0.04137674231933609
    z: 0.0
  orientation:
    x: 0
    y: 0
    z: 1
    w: 0
---
header:
  frame_id: local
pose:
  position:
    x: 0.15542085720616539
    y: 0.059642140177169255
    z: 0.0
  orientation:
    x: 0
    y: 0
    z: 1
    w: 0
---
header:
  frame_id: local
pose:
  position:
    x: 0.16369361960470713
    y: 0.07448017504858914
    z: 0.0
  orientation:
    x: 0
    y: 0
    z: 1
    w: 0
---
header:
  frame_id: local
pose:
  position:
    x: 0.18151055410851982
    y: 0.07625850276315374
    z: 0.0
  orientation:
    x: 0
    y: 0
    z: 1
    w: 0
---
header:
  frame_id: local
pose:
  position:
    x: 0.1985054226589077
    y: 0.06939231382385545
    z: 0.0
  orientation:
    x: 0
    y: 0
    z: 1
    w: 0
---
header:
  frame_id: local
pose:
  position:
    x: 0.195534945
    y: 0.08652276499999999
    z: 0.0
  orientation:
    x: 0
    y: 0
    z: 1
    w: 0
---
header:
  frame_id: local
pose:
  position:
    x: 0.195534945
    y: 0.08652276499999999
    z: -0.01
  orientation:
    x: 0
    y: 0
    z: 1
    w: 0
---
header:
  frame_id: local
pose:
  position:
    x: 0.22687543000000002
    y: 0.01169471275
    z: -0.01
  orientation:
    x: 0
    y: 0
    z: 1
    w: 0
---
header:
  frame_id: local
pose:
  position:
    x: 0.22687543000000002
    y: 0.01169471275
    z: 0.0
  orientation:
    x: 0
    y: 0
    z: 1
    w: 0
---
header:
  frame_id: local
pose:
  position:
    x: 0.24667904796643422
    y: 0.013952666539273456
    z: 0.0
  orientation:
    x: 0
    y: 0
    z: 1
    w: 0
---
header:
  frame_id: local
pose:
  position:
    x: 0.24235257338486496
    y: 0.036079484198058835
    z: 0.0
  orientation:
    x: 0
    y: 0
    z: 1
    w: 0
---
header:
  frame_id: local
pose:
  position:
    x: 0.2558165261699729
    y: 0.027909508595456635
    z: 0.0
  orientation:
    x: 0
    y: 0
    z: 1
    w: 0
---
header:
  frame_id: local
pose:
  position:
    x: 0.2730318173118219
    y: 0.013351067988321655
    z: 0.0
  orientation:
    x: 0
    y: 0
    z: 1
    w: 0
---
header:
  frame_id: local
pose:
  position:
    x: 0.29497117656426974
    y: 0.01169471275
    z: 0.0
  orientation:
    x: 0
    y: 0
    z: 1
    w: 0
---
header:
  frame_id: local
pose:
  position:
    x: 0.2856499063312995
    y: 0.0233763950280311
    z: 0.0
  orientation:
    x: 0
    y: 0
    z: 1
    w: 0
---
header:
  frame_id: local
pose:
  position:
    x: 0.26844559100904913
    y: 0.037947804579020986
    z: 0.0
  orientation:
    x: 0
    y: 0
    z: 1
    w: 0
---
header:
  frame_id: local
pose:
  position:
    x: 0.25711712001616316
    y: 0.05301838770300754
    z: 0.0
  orientation:
    x: 0
    y: 0
    z: 1
    w: 0
---
header:
  frame_id: local
pose:
  position:
    x: 0.27161683956905414
    y: 0.0702831661521395
    z: 0.0
  orientation:
    x: 0
    y: 0
    z: 1
    w: 0
---
header:
  frame_id: local
pose:
  position:
    x: 0.28611655912194517
    y: 0.08754794460127144
    z: 0.0
  orientation:
    x: 0
    y: 0
    z: 1
    w: 0
---
header:
  frame_id: local
pose:
  position:
    x: 0.26926925204250785
    y: 0.09020369500000001
    z: 0.0
  orientation:
    x: 0
    y: 0
    z: 1
    w: 0
---
header:
  frame_id: local
pose:
  position:
    x: 0.25337566710918613
    y: 0.07630036209962063
    z: 0.0
  orientation:
    x: 0
    y: 0
    z: 1
    w: 0
---
header:
  frame_id: local
pose:
  position:
    x: 0.23922962770312836
    y: 0.058744621980435674
    z: 0.0
  orientation:
    x: 0
    y: 0
    z: 1
    w: 0
---
header:
  frame_id: local
pose:
  position:
    x: 0.2342011875738227
    y: 0.07793526610630296
    z: 0.0
  orientation:
    x: 0
    y: 0
    z: 1
    w: 0
---
header:
  frame_id: local
pose:
  position:
    x: 0.22177024688961972
    y: 0.09020369500000001
    z: 0.0
  orientation:
    x: 0
    y: 0
    z: 1
    w: 0
---
header:
  frame_id: local
pose:
  position:
    x: 0.21393573241551775
    y: 0.07808292107431812
    z: 0.0
  orientation:
    x: 0
    y: 0
    z: 1
    w: 0
---
header:
  frame_id: local
pose:
  position:
    x: 0.2182489649436785
    y: 0.05595351829954545
    z: 0.0
  orientation:
    x: 0
    y: 0
    z: 1
    w: 0
---
header:
  frame_id: local
pose:
  position:
    x: 0.22256219747183928
    y: 0.03382411552477272
    z: 0.0
  orientation:
    x: 0
    y: 0
    z: 1
    w: 0
---
header:
  frame_id: local
pose:
  position:
    x: 0.22687543000000002
    y: 0.011694712750000003
    z: 0.0
  orientation:
    x: 0
    y: 0
    z: 1
    w: 0
---
header:
  frame_id: local
pose:
  position:
    x: 0.22687543000000002
    y: 0.011694712750000003
    z: -0.01
  orientation:
    x: 0
    y: 0
    z: 1
    w: 0
---
header:
  frame_id: local
pose:
  position:
    x: 0.31032740000000003
    y: 0.01169471275
    z: -0.01
  orientation:
    x: 0
    y: 0
    z: 1
    w: 0
---
header:
  frame_id: local
pose:
  position:
    x: 0.31032740000000003
    y: 0.01169471275
    z: 0.0
  orientation:
    x: 0
    y: 0
    z: 1
    w: 0
---
header:
  frame_id: local
pose:
  position:
    x: 0.333587078175536
    y: 0.013654635894324425
    z: 0.0
  orientation:
    x: 0
    y: 0
    z: 1
    w: 0
---
header:
  frame_id: local
pose:
  position:
    x: 0.3413358449640447
    y: 0.0370821915807485
    z: 0.0
  orientation:
    x: 0
    y: 0
    z: 1
    w: 0
---
header:
  frame_id: local
pose:
  position:
    x: 0.34908461175255345
    y: 0.060509747267172564
    z: 0.0
  orientation:
    x: 0
    y: 0
    z: 1
    w: 0
---
header:
  frame_id: local
pose:
  position:
    x: 0.3545144109543099
    y: 0.04759105719796958
    z: 0.0
  orientation:
    x: 0
    y: 0
    z: 1
    w: 0
---
header:
  frame_id: local
pose:
  position:
    x: 0.35922301189525946
    y: 0.023368695022449096
    z: 0.0
  orientation:
    x: 0
    y: 0
    z: 1
    w: 0
---
header:
  frame_id: local
pose:
  position:
    x: 0.37427559388318027
    y: 0.011694712750000003
    z: 0.0
  orientation:
    x: 0
    y: 0
    z: 1
    w: 0
---
header:
  frame_id: local
pose:
  position:
    x: 0.3771287008268542
    y: 0.02967458733824614
    z: 0.0
  orientation:
    x: 0
    y: 0
    z: 1
    w: 0
---
header:
  frame_id: local
pose:
  position:
    x: 0.3724079906532211
    y: 0.05389459245054438
    z: 0.0
  orientation:
    x: 0
    y: 0
    z: 1
    w: 0
---
header:
  frame_id: local
pose:
  position:
    x: 0.36768728047958804
    y: 0.07811459756284261
    z: 0.0
  orientation:
    x: 0
    y: 0
    z: 1
    w: 0
---
header:
  frame_id: local
pose:
  position:
    x: 0.35297181520484167
    y: 0.090203695
    z: 0.0
  orientation:
    x: 0
    y: 0
    z: 1
    w: 0
---
header:
  frame_id: local
pose:
  position:
    x: 0.33819025022199706
    y: 0.07650977287760335
    z: 0.0
  orientation:
    x: 0
    y: 0
    z: 1
    w: 0
---
header:
  frame_id: local
pose:
  position:
    x: 0.3304414834656032
    y: 0.05308221718055722
    z: 0.0
  orientation:
    x: 0
    y: 0
    z: 1
    w: 0
---
header:
  frame_id: local
pose:
  position:
    x: 0.3235001770418951
    y: 0.04221823019943254
    z: 0.0
  orientation:
    x: 0
    y: 0
    z: 1
    w: 0
---
header:
  frame_id: local
pose:
  position:
    x: 0.3188141509771638
    y: 0.06644496980474997
    z: 0.0
  orientation:
    x: 0
    y: 0
    z: 1
    w: 0
---
header:
  frame_id: local
pose:
  position:
    x: 0.3137419611292364
    y: 0.090203695
    z: 0.0
  orientation:
    x: 0
    y: 0
    z: 1
    w: 0
---
header:
  frame_id: local
pose:
  position:
    x: 0.2961652471884344
    y: 0.08435472374222756
    z: 0.0
  orientation:
    x: 0
    y: 0
    z: 1
    w: 0
---
header:
  frame_id: local
pose:
  position:
    x: 0.3008859647922896
    y: 0.060134720078151745
    z: 0.0
  orientation:
    x: 0
    y: 0
    z: 1
    w: 0
---
header:
  frame_id: local
pose:
  position:
    x: 0.3056066823961448
    y: 0.03591471641407587
    z: 0.0
  orientation:
    x: 0
    y: 0
    z: 1
    w: 0
---
header:
  frame_id: local
pose:
  position:
    x: 0.31032740000000003
    y: 0.011694712750000003
    z: 0.0
  orientation:
    x: 0
    y: 0
    z: 1
    w: 0
---
header:
  frame_id: local
pose:
  position:
    x: 0.31032740000000003
    y: 0.011694712750000003
    z: -0.01
  orientation:
    x: 0
    y: 0
    z: 1
    w: 0
---
header:
  frame_id: local
pose:
  position:
    x: 0.4004576
    y: 0.01169471275
    z: -0.01
  orientation:
    x: 0
    y: 0
    z: 1
    w: 0
---
header:
  frame_id: local
pose:
  position:
    x: 0.4004576
    y: 0.01169471275
    z: 0.0
  orientation:
    x: 0
    y: 0
    z: 1
    w: 0
---
header:
  frame_id: local
pose:
  position:
    x: 0.41100828151461455
    y: 0.01169471275
    z: 0.0
  orientation:
    x: 0
    y: 0
    z: 1
    w: 0
---
header:
  frame_id: local
pose:
  position:
    x: 0.42053891851478
    y: 0.012535135856594536
    z: 0.0
  orientation:
    x: 0
    y: 0
    z: 1
    w: 0
---
header:
  frame_id: local
pose:
  position:
    x: 0.4185204727128093
    y: 0.022890943742381927
    z: 0.0
  orientation:
    x: 0
    y: 0
    z: 1
    w: 0
---
header:
  frame_id: local
pose:
  position:
    x: 0.4165020269108386
    y: 0.03324675162816932
    z: 0.0
  orientation:
    x: 0
    y: 0
    z: 1
    w: 0
---
header:
  frame_id: local
pose:
  position:
    x: 0.414483581108868
    y: 0.04360255951395672
    z: 0.0
  orientation:
    x: 0
    y: 0
    z: 1
    w: 0
---
header:
  frame_id: local
pose:
  position:
    x: 0.4124651353068973
    y: 0.05395836739974412
    z: 0.0
  orientation:
    x: 0
    y: 0
    z: 1
    w: 0
---
header:
  frame_id: local
pose:
  position:
    x: 0.41044668950492674
    y: 0.06431417528553152
    z: 0.0
  orientation:
    x: 0
    y: 0
    z: 1
    w: 0
---
header:
  frame_id: local
pose:
  position:
    x: 0.40842824370295605
    y: 0.0746699831713189
    z: 0.0
  orientation:
    x: 0
    y: 0
    z: 1
    w: 0
---
header:
  frame_id: local
pose:
  position:
    x: 0.4064097979009853
    y: 0.08502579105710631
    z: 0.0
  orientation:
    x: 0
    y: 0
    z: 1
    w: 0
---
header:
  frame_id: local
pose:
  position:
    x: 0.40012523424269275
    y: 0.090203695
    z: 0.0
  orientation:
    x: 0
    y: 0
    z: 1
    w: 0
---
header:
  frame_id: local
pose:
  position:
    x: 0.38957455272807817
    y: 0.090203695
    z: 0.0
  orientation:
    x: 0
    y: 0
    z: 1
    w: 0
---
header:
  frame_id: local
pose:
  position:
    x: 0.38632847938620546
    y: 0.08418536795051176
    z: 0.0
  orientation:
    x: 0
    y: 0
    z: 1
    w: 0
---
header:
  frame_id: local
pose:
  position:
    x: 0.38834692518817604
    y: 0.0738295600647244
    z: 0.0
  orientation:
    x: 0
    y: 0
    z: 1
    w: 0
---
header:
  frame_id: local
pose:
  position:
    x: 0.39036537099014673
    y: 0.06347375217893698
    z: 0.0
  orientation:
    x: 0
    y: 0
    z: 1
    w: 0
---
header:
  frame_id: local
pose:
  position:
    x: 0.39238381679211737
    y: 0.053117944293149574
    z: 0.0
  orientation:
    x: 0
    y: 0
    z: 1
    w: 0
---
header:
  frame_id: local
pose:
  position:
    x: 0.394402262594088
    y: 0.0427621364073622
    z: 0.0
  orientation:
    x: 0
    y: 0
    z: 1
    w: 0
---
header:
  frame_id: local
pose:
  position:
    x: 0.39642070839605875
    y: 0.032406328521574816
    z: 0.0
  orientation:
    x: 0
    y: 0
    z: 1
    w: 0
---
header:
  frame_id: local
pose:
  position:
    x: 0.39843915419802933
    y: 0.022050520635787406
    z: 0.0
  orientation:
    x: 0
    y: 0
    z: 1
    w: 0
---
header:
  frame_id: local
pose:
  position:
    x: 0.4004576
    y: 0.011694712750000003
    z: 0.0
  orientation:
    x: 0
    y: 0
    z: 1
    w: 0
---
header:
  frame_id: local
pose:
  position:
    x: 0.4004576
    y: 0.011694712750000003
    z: -0.01
  orientation:
    x: 0
    y: 0
    z: 1
    w: 0
---
header:
  frame_id: local
pose:
  position:
    x: 0.44052715
    y: 0.01169471275
    z: -0.01
  orientation:
    x: 0
    y: 0
    z: 1
    w: 0
---
header:
  frame_id: local
pose:
  position:
    x: 0.44052715
    y: 0.01169471275
    z: 0.0
  orientation:
    x: 0
    y: 0
    z: 1
    w: 0
---
header:
  frame_id: local
pose:
  position:
    x: 0.4603307494675481
    y: 0.013952680849204953
    z: 0.0
  orientation:
    x: 0
    y: 0
    z: 1
    w: 0
---
header:
  frame_id: local
pose:
  position:
    x: 0.45600429249378127
    y: 0.03607949862470184
    z: 0.0
  orientation:
    x: 0
    y: 0
    z: 1
    w: 0
---
header:
  frame_id: local
pose:
  position:
    x: 0.46946825591326125
    y: 0.027909495582450955
    z: 0.0
  orientation:
    x: 0
    y: 0
    z: 1
    w: 0
---
header:
  frame_id: local
pose:
  position:
    x: 0.48668353918830887
    y: 0.013351050728148496
    z: 0.0
  orientation:
    x: 0
    y: 0
    z: 1
    w: 0
---
header:
  frame_id: local
pose:
  position:
    x: 0.5086229011494898
    y: 0.01169471275
    z: 0.0
  orientation:
    x: 0
    y: 0
    z: 1
    w: 0
---
header:
  frame_id: local
pose:
  position:
    x: 0.49930159006171615
    y: 0.023376408807757744
    z: 0.0
  orientation:
    x: 0
    y: 0
    z: 1
    w: 0
---
header:
  frame_id: local
pose:
  position:
    x: 0.4820972772304196
    y: 0.03794781624900318
    z: 0.0
  orientation:
    x: 0
    y: 0
    z: 1
    w: 0
---
header:
  frame_id: local
pose:
  position:
    x: 0.47076882952936533
    y: 0.05301839903035277
    z: 0.0
  orientation:
    x: 0
    y: 0
    z: 1
    w: 0
---
header:
  frame_id: local
pose:
  position:
    x: 0.48526854698289174
    y: 0.07028317497977662
    z: 0.0
  orientation:
    x: 0
    y: 0
    z: 1
    w: 0
---
header:
  frame_id: local
pose:
  position:
    x: 0.49976826443641803
    y: 0.08754795092920047
    z: 0.0
  orientation:
    x: 0
    y: 0
    z: 1
    w: 0
---
header:
  frame_id: local
pose:
  position:
    x: 0.4829209470432883
    y: 0.09020369500000001
    z: 0.0
  orientation:
    x: 0
    y: 0
    z: 1
    w: 0
---
header:
  frame_id: local
pose:
  position:
    x: 0.4670273673072691
    y: 0.07630035971199492
    z: 0.0
  orientation:
    x: 0
    y: 0
    z: 1
    w: 0
---
header:
  frame_id: local
pose:
  position:
    x: 0.4528813315739715
    y: 0.05874462082557477
    z: 0.0
  orientation:
    x: 0
    y: 0
    z: 1
    w: 0
---
header:
  frame_id: local
pose:
  position:
    x: 0.4478528928896693
    y: 0.07793526448008453
    z: 0.0
  orientation:
    x: 0
    y: 0
    z: 1
    w: 0
---
header:
  frame_id: local
pose:
  position:
    x: 0.4354219568105598
    y: 0.09020369500000001
    z: 0.0
  orientation:
    x: 0
    y: 0
    z: 1
    w: 0
---
header:
  frame_id: local
pose:
  position:
    x: 0.42758745632567197
    y: 0.07808291185916139
    z: 0.0
  orientation:
    x: 0
    y: 0
    z: 1
    w: 0
---
header:
  frame_id: local
pose:
  position:
    x: 0.43190068755044797
    y: 0.055953512156107624
    z: 0.0
  orientation:
    x: 0
    y: 0
    z: 1
    w: 0
---
header:
  frame_id: local
pose:
  position:
    x: 0.436213918775224
    y: 0.03382411245305381
    z: 0.0
  orientation:
    x: 0
    y: 0
    z: 1
    w: 0
---
header:
  frame_id: local
pose:
  position:
    x: 0.44052715
    y: 0.011694712750000003
    z: 0.0
  orientation:
    x: 0
    y: 0
    z: 1
    w: 0
---
header:
  frame_id: local
pose:
  position:
    x: 0.44052715
    y: 0.011694712750000003
    z: -0.01
  orientation:
    x: 0
    y: 0
    z: 1
    w: 0
